[
  {
    "id": 145,
    "name": "Pat & Jimena",
    "view": "https://www.google.com/maps/embed?pb=!4v1595619038462!6m8!1m7!1sXLXM59OGMVEUryMDU7hkBQ!2m2!1d45.58050209660205!2d-73.65065060590294!3f9.707178213431225!4f0!5f0.7820865974627469",
    "direction": "10685 Avenue Larose, Montreal, Quebec",
    "area": "Ahuntsic",
    "lat": 45.5807055,
    "lng": -73.6511405

  },
  {
    "id": 148,
    "name": "Pat & Tessie",
    "view": "https://www.google.com/maps/embed?pb=!4v1595619374522!6m8!1m7!1sJeQqLkKqHt_aP56IElTSQA!2m2!1d45.47459512188576!2d-73.58639065290512!3f220.7574562706771!4f16.184002843963896!5f0.7820865974627469",
    "direction": "357 Rue Beaudoin, Montreal, Quebec",
    "area": "St-Henri",
    "lat": 45.4743874,
    "lng": -73.5866254
  },
  {
    "id": 201,
    "name": "Juan & Gina",
    "view": "https://www.google.com/maps/embed?pb=!4v1595619513369!6m8!1m7!1sLzxTjYt7UU1FaBkOsrFDwQ!2m2!1d45.53859260552506!2d-73.58163954919904!3f219.11536823738527!4f14.558221594991963!5f0.7820865974627469",
    "direction": "5313 Rue de Bordeaux, Montreal, Quebec",
    "area": "Plateau",
    "lat": 45.5384632,
    "lng": -73.5823414
  },
  {
    "id": 205,
    "name": "Olaf",
    "view": "https://www.google.com/maps/embed?pb=!4v1595619654014!6m8!1m7!1s3bS2i2qIJnEL7HOw66N7Hg!2m2!1d45.64063500881214!2d-73.7527308011576!3f238.93013958987572!4f-5.599079558774562!5f1.0849685730419556",
    "direction": "6328 Rue Pelletier, Laval, Quebec",
    "area": "Sainte-Rose",
    "lat": 45.6405542,
    "lng": -73.7534714
  },
  {
    "id": 210,
    "name": "Jeanks & Ada",
    "view": "https://www.google.com/maps/embed?pb=!4v1595619794984!6m8!1m7!1sG5L0SWJIr9LIg2ddj7Kncw!2m2!1d45.52275758962772!2d-73.4946085517183!3f227.17861603063648!4f3.775478579107542!5f0.7820865974627469",
    "direction": "1589 Rue Joliette, Longueuil, Quebec",
    "area": "Longueuil",
    "lat": 45.5226675,
    "lng": -73.4965656
  },
  {
    "id": 211,
    "name": "Pablo",
    "view": "https://www.google.com/maps/embed?pb=!4v1595619886934!6m8!1m7!1s4aNCxk40pQ-1PcgoJrmqcQ!2m2!1d45.56399260157279!2d-73.7205837097441!3f334.3042669288104!4f7.552432137475449!5f0.7820865974627469",
    "direction": "393 Rue Lulli, Laval, Quebec",
    "area": "Laval-des-Rapides",
    "lat": 45.5641413,
    "lng": -73.7214762
  },
  {
    "id": 212,
    "name": "Tibeault",
    "view": "https://www.google.com/maps/embed?pb=!4v1595619973373!6m8!1m7!1sgU-3QlpDVOM2sno3QjWMpg!2m2!1d45.5341804953465!2d-73.60898792737984!3f238.09021505113353!4f8.737365679929908!5f0.7820865974627469",
    "direction": "6685 Henri Julien Ave, Montreal, Quebec",
    "area": "Petite-Italie",
    "lat": 45.5341805,
    "lng": -73.6089879
  },
  {
    "id": 213,
    "name": "Roch & Rachelle",
    "view": "https://www.google.com/maps/embed?pb=!4v1595620067051!6m8!1m7!1s2zy2wMGivu7isXdX6znvIA!2m2!1d45.54319923067075!2d-73.57417654058881!3f210.66834941156142!4f11.10836653752277!5f0.7820865974627469",
    "direction": "5250 Rue Molson, Montreal, Quebec",
    "area": "Rosemont",
    "lat": 45.5433438,
    "lng": -73.5757763
  }

]


